[
  {
    "title": "BYU vs. Delaware",
    "sport": "Men's Basketball",
    "date": "Tue., Nov. 11",
    "time": "7:00 PM MST",
    "location": "Provo, Utah",
    "venue": "Marriott Center",
    "latitude": 40.22593,
    "longitude": -111.6955
  },
  {
    "title": "BYU vs. Omaha",
    "sport": "Women's Basketball",
    "date": "Thu., Nov. 13",
    "time": "7:00 PM MST",
    "location": "Provo, Utah",
    "venue": "Marriott Center",
    "latitude": 40.22593,
    "longitude": -111.6955
  },
  {
    "title": "BYU at NCAA Mountain Regionals",
    "sport": "Women's Cross Country",
    "date": "Fri., Nov. 14",
    "time": "10:30 AM MST",
    "location": "Salt Lake City, Utah",
    "venue": "Regional Athletic Complex",
    "latitude": 40.75628,
    "longitude": -111.89996
  },
  {
    "title": "BYU at NCAA Mountain Regional",
    "sport": "Men's Cross Country",
    "date": "Fri., Nov. 14",
    "time": "11:30 AM MST",
    "location": "Salt Lake City, Utah",
    "venue": "Regional Athletic Complex",
    "latitude": 40.75628,
    "longitude": -111.89996
  },
  {
    "title": "BYU at Utah",
    "sport": "Women's Volleyball",
    "date": "Fri., Nov. 14",
    "time": "7:00 PM MST",
    "location": "Salt Lake City, Utah",
    "venue": "Huntsman Center",
    "latitude": 40.75628,
    "longitude": -111.89996
  },
  {
    "title": "BYU vs. Fresno State",
    "sport": "Women's Basketball",
    "date": "Sat., Nov. 15",
    "time": "2:00 PM MST",
    "location": "Provo, Utah",
    "venue": "Marriott Center",
    "latitude": 40.22593,
    "longitude": -111.6955
  },
  {
    "title": "BYU vs. No. 3 UConn",
    "sport": "Men's Basketball",
    "date": "Sat., Nov. 15",
    "time": "5:00 PM MST",
    "location": "Boston, Massachusetts",
    "venue": "TD Garden",
    "latitude": 42.35657,
    "longitude": -71.06516
  },
  {
    "title": "BYU vs. TCU",
    "sport": "Football",
    "date": "Sat., Nov. 15",
    "time": "8:15 PM MST",
    "location": "Provo, Utah",
    "venue": "LaVell Edwards Stadium",
    "latitude": 40.22593,
    "longitude": -111.6955
  },
  {
    "title": "BYU at NCAA Individual Championships",
    "sport": "Men's Tennis",
    "date": "Tue., Nov. 18",
    "time": "TBA",
    "location": "Orlando, Florida",
    "venue": "",
    "latitude": 28.542,
    "longitude": -81.37343
  },
  {
    "title": "BYU vs. NCAA",
    "sport": "Women's Tennis",
    "date": "Wed., Nov. 19",
    "time": "TBA",
    "location": "Orlando, FL",
    "venue": "",
    "latitude": 28.542,
    "longitude": -81.37343
  },
  {
    "title": "BYU vs. Arizona",
    "sport": "Women's Volleyball",
    "date": "Wed., Nov. 19",
    "time": "6:00 PM MST",
    "location": "Provo, Utah",
    "venue": "Smith Fieldhouse",
    "latitude": 40.22593,
    "longitude": -111.6955
  },
  {
    "title": "BYU at Montana",
    "sport": "Women's Basketball",
    "date": "Wed., Nov. 19",
    "time": "7:00 PM MST",
    "location": "Missoula, Montana",
    "venue": "Dahlberg Arena",
    "latitude": 46.85505,
    "longitude": -114.01009
  },
  {
    "title": "BYU at Wolfpack Elite Invite (Swimming)",
    "sport": "Men's Swimming & Diving",
    "date": "Thu., Nov. 20",
    "time": "TBA",
    "location": "Greensboro, North Carolina",
    "venue": "Greensboro Aquatic Center",
    "latitude": 36.06995,
    "longitude": -79.76724
  },
  {
    "title": "BYU at USC Invitational (Diving)",
    "sport": "Men's Swimming & Diving",
    "date": "Thu., Nov. 20",
    "time": "TBA",
    "location": "Los Angeles, California",
    "venue": "Uytengsu Aquatics Center",
    "latitude": 33.97365,
    "longitude": -118.24904
  },
  {
    "title": "BYU at Wolfpack Elite Invite (Swimming)",
    "sport": "Women's Swimming & Diving",
    "date": "Thu., Nov. 20",
    "time": "TBA",
    "location": "Greensboro, North Carolina",
    "venue": "Greensboro Aquatic Center",
    "latitude": 36.06995,
    "longitude": -79.76724
  },
  {
    "title": "BYU at USC Invitational (Diving)",
    "sport": "Women's Swimming & Diving",
    "date": "Thu., Nov. 20",
    "time": "TBA",
    "location": "Los Angeles, California",
    "venue": "Uytengsu Aquatics Center",
    "latitude": 33.97365,
    "longitude": -118.24904
  },
  {
    "title": "BYU vs. No. 24 Wisconsin",
    "sport": "Men's Basketball",
    "date": "Fri., Nov. 21",
    "time": "2:00 PM MST",
    "location": "Salt Lake City, Utah",
    "venue": "Delta Center",
    "latitude": 40.75628,
    "longitude": -111.89996
  },
  {
    "title": "BYU vs. No. 13 Kansas",
    "sport": "Women's Volleyball",
    "date": "Fri., Nov. 21",
    "time": "6:00 PM MST",
    "location": "Provo, Utah",
    "venue": "Smith Fieldhouse",
    "latitude": 40.22593,
    "longitude": -111.6955
  },
  {
    "title": "BYU at NCAA Championships",
    "sport": "Women's Cross Country",
    "date": "Sat., Nov. 22",
    "time": "8:20 AM MST",
    "location": "Columbia, Missouri",
    "venue": "Gans Creek Cross Country Course",
    "latitude": 38.89595,
    "longitude": -92.24365
  },
  {
    "title": "BYU at NCAA Championships",
    "sport": "Men's Cross Country",
    "date": "Sat., Nov. 22",
    "time": "9:10 AM MST",
    "location": "Columbia, Missouri",
    "venue": "Gans Creek Championship Course",
    "latitude": 38.89595,
    "longitude": -92.24365
  },
  {
    "title": "BYU at Cincinnati",
    "sport": "Football",
    "date": "Sat., Nov. 22",
    "time": "TBA",
    "location": "Cincinnati, Ohio",
    "venue": "Nippert Stadium",
    "latitude": 39.10885,
    "longitude": -84.50243
  },
  {
    "title": "BYU vs. Weber State",
    "sport": "Women's Basketball",
    "date": "Sat., Nov. 22",
    "time": "2:00 PM MST",
    "location": "Provo, Utah",
    "venue": "Marriott Center",
    "latitude": 40.22593,
    "longitude": -111.6955
  },
  {
    "title": "BYU vs. Utah",
    "sport": "Women's Volleyball",
    "date": "Wed., Nov. 26",
    "time": "6:00 PM MST",
    "location": "Provo, Utah",
    "venue": "Smith Fieldhouse",
    "latitude": 40.22593,
    "longitude": -111.6955
  },
  {
    "title": "BYU vs. Miami",
    "sport": "Men's Basketball",
    "date": "Thu., Nov. 27",
    "time": "3:00 PM MST",
    "location": "Kissimmee, Florida",
    "venue": "State Farm Field House",
    "latitude": 28.30544,
    "longitude": -81.42567
  },
  {
    "title": "BYU vs. Virginia Tech",
    "sport": "Women's Basketball",
    "date": "Thu., Nov. 27",
    "time": "3:30 PM MST",
    "location": "St. Thomas, U.S. Virgin Islands",
    "venue": "UVI Arena",
    "latitude": null,
    "longitude": null
  },
  {
    "title": "BYU vs. Dayton/Georgetown",
    "sport": "Men's Basketball",
    "date": "Fri., Nov. 28",
    "time": "5/7:30 p.m. MST",
    "location": "Kissimmee, Florida",
    "venue": "State Farm Field House",
    "latitude": 28.30544,
    "longitude": -81.42567
  },
  {
    "title": "BYU vs. UCF",
    "sport": "Football",
    "date": "Sat., Nov. 29",
    "time": "TBA",
    "location": "Provo, Utah",
    "venue": "LaVell Edwards Stadium",
    "latitude": 40.22593,
    "longitude": -111.6955
  },
  {
    "title": "BYU at No. 22 Colorado",
    "sport": "Women's Volleyball",
    "date": "Sat., Nov. 29",
    "time": "1:00 PM MST",
    "location": "Boulder, Colorado",
    "venue": "CU Events Center",
    "latitude": 40.04795,
    "longitude": -105.19876
  },
  {
    "title": "BYU vs. Oregon State/Vanderbilt",
    "sport": "Women's Basketball",
    "date": "Sat., Nov. 29",
    "time": "TBA",
    "location": "St. Thomas, U.S. Virgin Islands",
    "venue": "UVI Arena",
    "latitude": null,
    "longitude": null
  },
  {
    "title": "BYU vs. US Open",
    "sport": "Men's Swimming & Diving",
    "date": "Wed., Dec. 3",
    "time": "TBA",
    "location": "Austin, Texas",
    "venue": "Lee and Joe Jamail Texas Swimming Center",
    "latitude": 30.27022,
    "longitude": -97.74248
  },
  {
    "title": "BYU vs. U.S. Open",
    "sport": "Women's Swimming & Diving",
    "date": "Wed., Dec. 3",
    "time": "TBA",
    "location": "Austin, Texas",
    "venue": "Lee and Joe Jamail Texas Swimming Center",
    "latitude": 30.27022,
    "longitude": -97.74248
  },
  {
    "title": "BYU vs. Washington State",
    "sport": "Women's Basketball",
    "date": "Wed., Dec. 3",
    "time": "2:00 PM MST",
    "location": "Salt Lake City, Utah",
    "venue": "Delta Center",
    "latitude": 40.75628,
    "longitude": -111.89996
  },
  {
    "title": "BYU vs. Cal Baptist",
    "sport": "Men's Basketball",
    "date": "Wed., Dec. 3",
    "time": "7:00 PM MST",
    "location": "Salt Lake City, Utah",
    "venue": "Delta Center",
    "latitude": 40.75628,
    "longitude": -111.89996
  },
  {
    "title": "BYU at Portland",
    "sport": "Women's Basketball",
    "date": "Sat., Dec. 6",
    "time": "6:00 PM MST",
    "location": "Portland, Oregon",
    "venue": "Chiles Center",
    "latitude": 45.50796,
    "longitude": -122.68959
  },
  {
    "title": "BYU vs. Clemson",
    "sport": "Men's Basketball",
    "date": "Tue., Dec. 9",
    "time": "4:30 PM MST",
    "location": "New York City, New York",
    "venue": "Madison Square Garden",
    "latitude": null,
    "longitude": null
  },
  {
    "title": "BYU vs. Idaho State",
    "sport": "Women's Basketball",
    "date": "Thu., Dec. 11",
    "time": "7:00 PM MST",
    "location": "Provo, Utah",
    "venue": "Marriott Center",
    "latitude": 40.22593,
    "longitude": -111.6955
  },
  {
    "title": "BYU vs. CSCAA Open Water Championship",
    "sport": "Men's Swimming & Diving",
    "date": "Sat., Dec. 13",
    "time": "TBA",
    "location": "Sarasota, Florida",
    "venue": "Nathan Benderson Park",
    "latitude": 27.26651,
    "longitude": -82.51626
  },
  {
    "title": "BYU vs. CSCAA Open Water Championship",
    "sport": "Women's Swimming & Diving",
    "date": "Sat., Dec. 13",
    "time": "TBA",
    "location": "Sarasota, Florida",
    "venue": "Nathan Benderson Park",
    "latitude": 27.26651,
    "longitude": -82.51626
  },
  {
    "title": "BYU vs. UTEP",
    "sport": "Women's Basketball",
    "date": "Sat., Dec. 13",
    "time": "1:00 PM MST",
    "location": "Provo, Utah",
    "venue": "Marriott Center",
    "latitude": 40.22593,
    "longitude": -111.6955
  },
  {
    "title": "BYU vs. UC Riverside",
    "sport": "Men's Basketball",
    "date": "Sat., Dec. 13",
    "time": "7:00 PM MST",
    "location": "Provo, Utah",
    "venue": "Marriott Center",
    "latitude": 40.22593,
    "longitude": -111.6955
  },
  {
    "title": "BYU vs. Pacific",
    "sport": "Men's Basketball",
    "date": "Tue., Dec. 16",
    "time": "7:00 PM MST",
    "location": "Provo, Utah",
    "venue": "Marriott Center",
    "latitude": 40.22593,
    "longitude": -111.6955
  },
  {
    "title": "BYU vs. Abilene Christian",
    "sport": "Men's Basketball",
    "date": "Fri., Dec. 19",
    "time": "7:30 PM MST",
    "location": "Provo, Utah",
    "venue": "Marriott Center",
    "latitude": 40.22593,
    "longitude": -111.6955
  },
  {
    "title": "BYU at UCF",
    "sport": "Women's Basketball",
    "date": "Sat., Dec. 20",
    "time": "12:00 PM MST",
    "location": "Orlando, Florida",
    "venue": "Addition Financial Arena",
    "latitude": 28.542,
    "longitude": -81.37343
  },
  {
    "title": "BYU vs. Eastern Washington",
    "sport": "Men's Basketball",
    "date": "Mon., Dec. 22",
    "time": "7:00 PM MST",
    "location": "Provo, Utah",
    "venue": "Marriott Center",
    "latitude": 40.22593,
    "longitude": -111.6955
  },
  {
    "title": "BYU vs. TCU",
    "sport": "Women's Basketball",
    "date": "Wed., Dec. 31",
    "time": "7:00 PM MST",
    "location": "Provo, Utah",
    "venue": "Marriott Center",
    "latitude": 40.22593,
    "longitude": -111.6955
  },
  {
    "title": "BYU at Hawaii",
    "sport": "Men's Swimming & Diving",
    "date": "Sat., Jan. 3",
    "time": "TBA",
    "location": "Honolulu, Hawaii",
    "venue": "Duke Kahanamoku Aquatic Complex",
    "latitude": 21.31628,
    "longitude": -157.84359
  },
  {
    "title": "BYU at Kansas State",
    "sport": "Men's Basketball",
    "date": "Sat., Jan. 3",
    "time": "11:30 AM MST",
    "location": "Manhattan, Kansas",
    "venue": "Bramlage Coliseum",
    "latitude": 39.14146,
    "longitude": -96.52906
  },
  {
    "title": "BYU at Hawaii",
    "sport": "Women's Swimming & Diving",
    "date": "Sat., Jan. 3",
    "time": "TBA",
    "location": "Honolulu, Hawaii",
    "venue": "Duke Kahanamoku Aquatic Complex",
    "latitude": 21.31628,
    "longitude": -157.84359
  },
  {
    "title": "BYU vs. Arizona State",
    "sport": "Women's Basketball",
    "date": "Sat., Jan. 3",
    "time": "2:00 PM MST",
    "location": "Provo, Utah",
    "venue": "Marriott Center",
    "latitude": 40.22593,
    "longitude": -111.6955
  },
  {
    "title": "BYU at Arizona",
    "sport": "Women's Basketball",
    "date": "Tue., Jan. 6",
    "time": "6:00 PM MST",
    "location": "Tucson, Arizona",
    "venue": "McKale Center",
    "latitude": 32.21702,
    "longitude": -110.97138
  },
  {
    "title": "BYU vs. Arizona State",
    "sport": "Men's Basketball",
    "date": "Wed., Jan. 7",
    "time": "7:00 PM MST",
    "location": "Provo, Utah",
    "venue": "Marriott Center",
    "latitude": 40.22593,
    "longitude": -111.6955
  },
  {
    "title": "BYU vs. Saint Francis",
    "sport": "Men's Volleyball",
    "date": "Fri., Jan. 9",
    "time": "7:00 PM MST",
    "location": "Provo, Utah",
    "venue": "Smith Fieldhouse",
    "latitude": 40.22593,
    "longitude": -111.6955
  },
  {
    "title": "BYU vs. Oregon State",
    "sport": "Women's Gymnastics",
    "date": "Fri., Jan. 9",
    "time": "7:00 PM MST",
    "location": "Provo, Utah",
    "venue": "Marriott Center",
    "latitude": 40.22593,
    "longitude": -111.6955
  },
  {
    "title": "BYU at Dual at Denver",
    "sport": "Men's Swimming & Diving",
    "date": "Sat., Jan. 10",
    "time": "TBA",
    "location": "Denver, Colorado",
    "venue": "El Pomar Natatorium",
    "latitude": 39.75156,
    "longitude": -104.99768
  },
  {
    "title": "BYU at Dual at Denver",
    "sport": "Women's Swimming & Diving",
    "date": "Sat., Jan. 10",
    "time": "TBA",
    "location": "Denver, Colorado",
    "venue": "El Pomar Natatorium",
    "latitude": 39.75156,
    "longitude": -104.99768
  },
  {
    "title": "BYU at Houston",
    "sport": "Women's Basketball",
    "date": "Sat., Jan. 10",
    "time": "1:00 PM MST",
    "location": "Houston, Texas",
    "venue": "Fertitta Center",
    "latitude": 29.75635,
    "longitude": -95.36538
  },
  {
    "title": "BYU vs. Saint Francis",
    "sport": "Men's Volleyball",
    "date": "Sat., Jan. 10",
    "time": "7:00 PM MST",
    "location": "Provo, Utah",
    "venue": "Smith Fieldhouse",
    "latitude": 40.22593,
    "longitude": -111.6955
  },
  {
    "title": "BYU at Utah",
    "sport": "Men's Basketball",
    "date": "Sat., Jan. 10",
    "time": "8:00 PM MST",
    "location": "Salt Lake City, Utah",
    "venue": "Huntsman Center",
    "latitude": 40.75628,
    "longitude": -111.89996
  },
  {
    "title": "BYU vs. Southern Utah",
    "sport": "Women's Gymnastics",
    "date": "Mon., Jan. 12",
    "time": "7:00 PM MST",
    "location": "West Valley City, Utah",
    "venue": "Maverik Center",
    "latitude": 40.70289,
    "longitude": -111.94591
  },
  {
    "title": "BYU vs. Utah",
    "sport": "Women's Gymnastics",
    "date": "Mon., Jan. 12",
    "time": "7:00 PM MST",
    "location": "West Valley City, Utah",
    "venue": "Maverik Center",
    "latitude": 40.70289,
    "longitude": -111.94591
  },
  {
    "title": "BYU vs. Utah State",
    "sport": "Women's Gymnastics",
    "date": "Mon., Jan. 12",
    "time": "7:00 PM MST",
    "location": "West Valley City, Utah",
    "venue": "Maverik Center",
    "latitude": 40.70289,
    "longitude": -111.94591
  },
  {
    "title": "BYU vs. TCU",
    "sport": "Men's Basketball",
    "date": "Wed., Jan. 14",
    "time": "9:00 PM MST",
    "location": "Provo, Utah",
    "venue": "Marriott Center",
    "latitude": 40.22593,
    "longitude": -111.6955
  },
  {
    "title": "BYU vs. Big 12 - Duel in the West",
    "sport": "Men's Swimming & Diving",
    "date": "Fri., Jan. 16",
    "time": "TBA",
    "location": "Tempe, Arizona",
    "venue": "",
    "latitude": 33.42805,
    "longitude": -111.93157
  },
  {
    "title": "BYU at Big 12 - Duel in the West",
    "sport": "Women's Swimming & Diving",
    "date": "Fri., Jan. 16",
    "time": "TBA",
    "location": "Tempe, Arizona",
    "venue": "",
    "latitude": 33.42805,
    "longitude": -111.93157
  },
  {
    "title": "BYU vs. UC San Diego",
    "sport": "Men's Volleyball",
    "date": "Fri., Jan. 16",
    "time": "7:00 PM MST",
    "location": "Provo, Utah",
    "venue": "Smith Fieldhouse",
    "latitude": 40.22593,
    "longitude": -111.6955
  },
  {
    "title": "BYU vs. Boise State",
    "sport": "Women's Gymnastics",
    "date": "Fri., Jan. 16",
    "time": "7:00 PM MST",
    "location": "Provo, Utah",
    "venue": "Marriott Center",
    "latitude": 40.22593,
    "longitude": -111.6955
  },
  {
    "title": "BYU at Utah Tech",
    "sport": "Women's Tennis",
    "date": "Sat., Jan. 17",
    "time": "10:00 AM MST",
    "location": "St. George, UT",
    "venue": "",
    "latitude": null,
    "longitude": null
  },
  {
    "title": "BYU vs. Weber State",
    "sport": "Men's Tennis",
    "date": "Sat., Jan. 17",
    "time": "12:00 PM MST",
    "location": "Provo, Utah",
    "venue": "Indoor Tennis Courts",
    "latitude": 40.22593,
    "longitude": -111.6955
  },
  {
    "title": "BYU vs. Baylor",
    "sport": "Women's Basketball",
    "date": "Sat., Jan. 17",
    "time": "2:00 PM MST",
    "location": "Provo, Utah",
    "venue": "Marriott Center",
    "latitude": 40.22593,
    "longitude": -111.6955
  },
  {
    "title": "BYU at Utah Tech",
    "sport": "Women's Tennis",
    "date": "Sat., Jan. 17",
    "time": "3:00 PM MST",
    "location": "St. George, UT",
    "venue": "",
    "latitude": null,
    "longitude": null
  },
  {
    "title": "BYU at No. 11 Texas Tech",
    "sport": "Men's Basketball",
    "date": "Sat., Jan. 17",
    "time": "6:00 PM MST",
    "location": "Lubbock, Texas",
    "venue": "United Supermarkets Arena",
    "latitude": 33.58683,
    "longitude": -101.85179
  },
  {
    "title": "BYU vs. UC San Diego",
    "sport": "Men's Volleyball",
    "date": "Sat., Jan. 17",
    "time": "7:00 PM MST",
    "location": "Provo, Utah",
    "venue": "Smith Fieldhouse",
    "latitude": 40.22593,
    "longitude": -111.6955
  },
  {
    "title": "BYU vs. Texas Tech",
    "sport": "Women's Basketball",
    "date": "Wed., Jan. 21",
    "time": "7:00 PM MST",
    "location": "Provo, Utah",
    "venue": "Marriott Center",
    "latitude": 40.22593,
    "longitude": -111.6955
  },
  {
    "title": "BYU vs. Air Force and CMU Double Dual",
    "sport": "Men's Swimming & Diving",
    "date": "Fri., Jan. 23",
    "time": "TBA",
    "location": "Provo, Utah",
    "venue": "Richards Building Pool",
    "latitude": 40.22593,
    "longitude": -111.6955
  },
  {
    "title": "BYU at Arizona State",
    "sport": "Women's Gymnastics",
    "date": "Fri., Jan. 23",
    "time": "TBA",
    "location": "Tempe, Arizona",
    "venue": "Mullett Arena",
    "latitude": 33.42805,
    "longitude": -111.93157
  },
  {
    "title": "BYU at San Diego",
    "sport": "Women's Tennis",
    "date": "Fri., Jan. 23",
    "time": "TBA",
    "location": "San Diego, CA",
    "venue": "",
    "latitude": 32.7162,
    "longitude": -117.18589
  },
  {
    "title": "BYU vs. Air Force and CMU Double Dual",
    "sport": "Women's Swimming & Diving",
    "date": "Fri., Jan. 23",
    "time": "TBA",
    "location": "Provo, Utah",
    "venue": "Richards Building Pool",
    "latitude": 40.22593,
    "longitude": -111.6955
  },
  {
    "title": "BYU vs. UC Irvine",
    "sport": "Men's Volleyball",
    "date": "Fri., Jan. 23",
    "time": "7:00 PM MST",
    "location": "Provo, Utah",
    "venue": "Smith Fieldhouse",
    "latitude": 40.22593,
    "longitude": -111.6955
  },
  {
    "title": "BYU vs. Utah",
    "sport": "Men's Basketball",
    "date": "Sat., Jan. 24",
    "time": "3:30 PM MST",
    "location": "Provo, Utah",
    "venue": "Marriott Center",
    "latitude": 40.22593,
    "longitude": -111.6955
  },
  {
    "title": "BYU vs. UC Irvine",
    "sport": "Men's Volleyball",
    "date": "Sat., Jan. 24",
    "time": "7:00 PM MST",
    "location": "Provo, Utah",
    "venue": "Smith Fieldhouse",
    "latitude": 40.22593,
    "longitude": -111.6955
  },
  {
    "title": "BYU vs. West Virginia",
    "sport": "Women's Basketball",
    "date": "Sat., Jan. 24",
    "time": "7:30 PM MST",
    "location": "Provo, Utah",
    "venue": "Marriott Center",
    "latitude": 40.22593,
    "longitude": -111.6955
  },
  {
    "title": "BYU at Arizona N.I.T",
    "sport": "Men's Golf",
    "date": "Mon., Jan. 26",
    "time": "8:00 AM MST",
    "location": "Tucson, AZ",
    "venue": "Omni Tucson National Resort",
    "latitude": 32.21702,
    "longitude": -110.97138
  },
  {
    "title": "BYU vs. No. 5 Arizona",
    "sport": "Men's Basketball",
    "date": "Mon., Jan. 26",
    "time": "7:00 PM MST",
    "location": "Provo, Utah",
    "venue": "Marriott Center",
    "latitude": 40.22593,
    "longitude": -111.6955
  },
  {
    "title": "BYU at Air Force Invite (Diving)",
    "sport": "Men's Swimming & Diving",
    "date": "Wed., Jan. 28",
    "time": "TBA",
    "location": "Colorado Springs, Colorado",
    "venue": "Cadet Natatorium",
    "latitude": 38.68683,
    "longitude": -104.8127
  },
  {
    "title": "BYU at Air Force Invite (Diving)",
    "sport": "Women's Swimming & Diving",
    "date": "Wed., Jan. 28",
    "time": "TBA",
    "location": "Colorado Springs, Colorado",
    "venue": "Cadet Natatorium",
    "latitude": 38.68683,
    "longitude": -104.8127
  },
  {
    "title": "BYU at Oklahoma State",
    "sport": "Women's Basketball",
    "date": "Wed., Jan. 28",
    "time": "5:30 PM MST",
    "location": "Stillwater, Oklahoma",
    "venue": "Gallagher-Iba Arena",
    "latitude": 36.07832,
    "longitude": -97.06452
  },
  {
    "title": "BYU vs. Portland",
    "sport": "Men's Tennis",
    "date": "Thu., Jan. 29",
    "time": "TBA",
    "location": "Honolulu, Hawaii",
    "venue": "UH Tennis Complex",
    "latitude": 21.31628,
    "longitude": -157.84359
  },
  {
    "title": "BYU at UC Santa Barbara",
    "sport": "Men's Volleyball",
    "date": "Thu., Jan. 29",
    "time": "8:00 PM MST",
    "location": "Santa Barbara, California",
    "venue": "Robertson Gym",
    "latitude": 34.41925,
    "longitude": -119.70808
  },
  {
    "title": "BYU at Collegiate Invitational at Guadalajara",
    "sport": "Women's Golf",
    "date": "Fri., Jan. 30",
    "time": "8:00 AM MST",
    "location": "Guadalajara, Mexico",
    "venue": "Guadalajara Country Club",
    "latitude": null,
    "longitude": null
  },
  {
    "title": "BYU at Boise State",
    "sport": "Women's Tennis",
    "date": "Fri., Jan. 30",
    "time": "11:00 AM MST",
    "location": "Boise, ID",
    "venue": "",
    "latitude": 43.66821,
    "longitude": -116.16493
  },
  {
    "title": "BYU vs. Arizona",
    "sport": "Women's Gymnastics",
    "date": "Fri., Jan. 30",
    "time": "7:00 PM MST",
    "location": "Provo, Utah",
    "venue": "Marriott Center",
    "latitude": 40.22593,
    "longitude": -111.6955
  },
  {
    "title": "BYU at UC Santa Barbara",
    "sport": "Men's Volleyball",
    "date": "Fri., Jan. 30",
    "time": "8:00 PM MST",
    "location": "Santa Barbara, California",
    "venue": "Thunderdome",
    "latitude": 34.41925,
    "longitude": -119.70808
  },
  {
    "title": "BYU at Hawai'i",
    "sport": "Men's Tennis",
    "date": "Sat., Jan. 31",
    "time": "TBA",
    "location": "Honolulu, Hawaii",
    "venue": "UH Tennis Complex",
    "latitude": 21.31628,
    "longitude": -157.84359
  },
  {
    "title": "BYU vs. Idaho State",
    "sport": "Women's Tennis",
    "date": "Sat., Jan. 31",
    "time": "11:00 AM MST",
    "location": "Pocatello, ID",
    "venue": "",
    "latitude": 42.88949,
    "longitude": -112.38324
  },
  {
    "title": "BYU vs. Utah",
    "sport": "Women's Basketball",
    "date": "Sat., Jan. 31",
    "time": "2:00 PM MST",
    "location": "Provo, Utah",
    "venue": "Marriott Center",
    "latitude": 40.22593,
    "longitude": -111.6955
  },
  {
    "title": "BYU at No. 25 Kansas",
    "sport": "Men's Basketball",
    "date": "Sat., Jan. 31",
    "time": "2 or 2:30 p.m. MST",
    "location": "Lawrence, Kansas",
    "venue": "Allen Fieldhouse",
    "latitude": 39.03187,
    "longitude": -95.20991
  },
  {
    "title": "BYU at Kansas",
    "sport": "Women's Basketball",
    "date": "Wed., Feb. 4",
    "time": "5:30 PM MST",
    "location": "Lawrence, Kansas",
    "venue": "Allen Fieldhouse",
    "latitude": 39.03187,
    "longitude": -95.20991
  },
  {
    "title": "BYU at Oklahoma State",
    "sport": "Men's Basketball",
    "date": "Wed., Feb. 4",
    "time": "7:00 PM MST",
    "location": "Stillwater, Oklahoma",
    "venue": "Gallagher-Iba Arena",
    "latitude": 36.07832,
    "longitude": -97.06452
  },
  {
    "title": "BYU vs. Tennessee",
    "sport": "Softball",
    "date": "Thu., Feb. 5",
    "time": "5:00 PM MST",
    "location": "Clearwater, Florida",
    "venue": "Eddie C. Moore Complex",
    "latitude": 27.9793,
    "longitude": -82.78007
  },
  {
    "title": "BYU vs. Montana State University-Bozeman",
    "sport": "Men's Tennis",
    "date": "Thu., Feb. 5",
    "time": "5:30 PM MST",
    "location": "Provo, Utah",
    "venue": "Indoor Tennis Courts",
    "latitude": 40.22593,
    "longitude": -111.6955
  }
]