[
  {
    "title": "BYU at TCU",
    "sport": "Women's Tennis",
    "date": "Thu., Oct. 23TBA",
    "location": "Fort Worth, TX",
    "latitude": 32.75799,
    "longitude": -97.32858
  },
  {
    "title": "BYU at The Preserve Golf Club Collegiate",
    "sport": "Men's Golf",
    "date": "Mon., Oct. 278:00 AM MDT",
    "location": "Carmel, CA / Santa Lucia Preserve Golf Club",
    "latitude": 36.40394,
    "longitude": -121.79867
  },
  {
    "title": "BYU at UCF",
    "sport": "Women's Soccer",
    "date": "Mon., Oct. 2711:00 AM MDT",
    "location": "Orlando, Florida / UCF Soccer and Track Complex",
    "latitude": 28.542,
    "longitude": -81.37343
  },
  {
    "title": "BYU vs. Western Colorado",
    "sport": "Women's Basketball",
    "date": "Tue., Oct. 287:00 PM MDT",
    "location": "Provo, Utah / Marriott Center",
    "latitude": 40.22593,
    "longitude": -111.6955
  },
  {
    "title": "BYU vs. UCF",
    "sport": "Women's Volleyball",
    "date": "Wed., Oct. 296:00 PM MDT",
    "location": "Provo, Utah / Smith Fieldhouse",
    "latitude": 40.22593,
    "longitude": -111.6955
  },
  {
    "title": "BYU undefined Rahlston/Neufeld Coaches Challenge",
    "sport": "Men's Tennis",
    "date": "Thu., Oct. 30TBA",
    "location": "Dallas, Texas / Styslinger/Altec Tennis Complex",
    "latitude": 32.78826,
    "longitude": -96.79953
  },
  {
    "title": "BYU at Utah",
    "sport": "Women's Soccer",
    "date": "Thu., Oct. 307:00 PM MDT",
    "location": "Salt Lake City, Utah / Ute Field",
    "latitude": 40.75628,
    "longitude": -111.89996
  },
  {
    "title": "BYU at Big 12 Championships",
    "sport": "Men's Cross Country",
    "date": "Fri., Oct. 319:00 AM MDT",
    "location": "Lawerence, Kansas / Rim Rock Farm",
    "latitude": null,
    "longitude": null
  },
  {
    "title": "BYU at Big 12 Championships",
    "sport": "Women's Cross Country",
    "date": "Fri., Oct. 3110:00 AM MDT",
    "location": "Lawrence, Kansas / Rim Rock Farm",
    "latitude": 39.03187,
    "longitude": -95.20991
  },
  {
    "title": "BYU vs. Kansas State",
    "sport": "Women's Volleyball",
    "date": "Fri., Oct. 316:00 PM MDT",
    "location": "Provo, Utah / Smith Fieldhouse",
    "latitude": 40.22593,
    "longitude": -111.6955
  },
  {
    "title": "BYU undefined undefined",
    "sport": "Women's Soccer",
    "date": "Mon., Nov. 3TBA",
    "location": "Fort Worth, Texas / Garvey-Rosenthal Soccer Stadium",
    "latitude": 32.75799,
    "longitude": -97.32858
  },
  {
    "title": "BYU vs. Villanova",
    "sport": "Men's Basketball",
    "date": "Mon., Nov. 37:30 PM MST",
    "location": "Las Vegas, Nevada / T-Mobile Arena",
    "latitude": 36.17279,
    "longitude": -115.12234
  },
  {
    "title": "BYU at Arizona",
    "sport": "Women's Volleyball",
    "date": "Wed., Nov. 56:00 PM MST",
    "location": "Tucson, Arizona / McKale Center",
    "latitude": 32.21702,
    "longitude": -110.97138
  },
  {
    "title": "BYU vs. Coastal Carolina",
    "sport": "Women's Basketball",
    "date": "Wed., Nov. 57:00 PM MST",
    "location": "Provo, Utah / Marriott Center",
    "latitude": 40.22593,
    "longitude": -111.6955
  },
  {
    "title": "BYU at ITA Masters",
    "sport": "Men's Tennis",
    "date": "Thu., Nov. 6TBA",
    "location": "San Diego, California",
    "latitude": 32.7162,
    "longitude": -117.18589
  },
  {
    "title": "BYU vs. ITA",
    "sport": "Women's Tennis",
    "date": "Thu., Nov. 6TBA",
    "location": "Seattle, WA",
    "latitude": 47.61119,
    "longitude": -122.33454
  },
  {
    "title": "BYU at CSUN",
    "sport": "Women's Tennis",
    "date": "Fri., Nov. 7TBA",
    "location": "Northridge, CA",
    "latitude": 34.23855,
    "longitude": -118.55015
  },
  {
    "title": "BYU at UNLV",
    "sport": "Men's Swimming & Diving",
    "date": "Fri., Nov. 74:00 PM MST",
    "location": "Las Vegas, Nevada / Buchanan Natatorium",
    "latitude": 36.17279,
    "longitude": -115.12234
  },
  {
    "title": "BYU at UNLV",
    "sport": "Women's Swimming & Diving",
    "date": "Fri., Nov. 74:00 PM MST",
    "location": "Las Vegas, Nevada / Buchanan Natatorium",
    "latitude": 36.17279,
    "longitude": -115.12234
  },
  {
    "title": "BYU at No. 6 Arizona State",
    "sport": "Women's Volleyball",
    "date": "Fri., Nov. 77:00 PM MST",
    "location": "Tempe, Arizona / Desert Financial Arena",
    "latitude": 33.42805,
    "longitude": -111.93157
  },
  {
    "title": "BYU at Texas Tech",
    "sport": "Football",
    "date": "Sat., Nov. 8TBA",
    "location": "Lubbock, Texas / Jones AT&T Stadium",
    "latitude": 33.58683,
    "longitude": -101.85179
  },
  {
    "title": "BYU vs. San Jose State",
    "sport": "Women's Basketball",
    "date": "Sat., Nov. 82:00 PM MST",
    "location": "Provo, Utah / Marriott Center",
    "latitude": 40.22593,
    "longitude": -111.6955
  },
  {
    "title": "BYU vs. Holy Cross",
    "sport": "Men's Basketball",
    "date": "Sat., Nov. 87:00 PM MST",
    "location": "Provo, Utah / Marriott Center",
    "latitude": 40.22593,
    "longitude": -111.6955
  },
  {
    "title": "BYU vs. Delaware",
    "sport": "Men's Basketball",
    "date": "Tue., Nov. 117:00 PM MST",
    "location": "Provo, Utah / Marriott Center",
    "latitude": 40.22593,
    "longitude": -111.6955
  },
  {
    "title": "BYU vs. University of Nebraska Omaha",
    "sport": "Women's Basketball",
    "date": "Thu., Nov. 137:00 PM MST",
    "location": "Provo, Utah / Marriott Center",
    "latitude": 40.22593,
    "longitude": -111.6955
  },
  {
    "title": "BYU at NCAA Mountain Regionals",
    "sport": "Women's Cross Country",
    "date": "Fri., Nov. 14TBA",
    "location": "Salt Lake City, Utah / Regional Athletic Complex",
    "latitude": 40.75628,
    "longitude": -111.89996
  },
  {
    "title": "BYU at NCAA Mountain Regional",
    "sport": "Men's Cross Country",
    "date": "Fri., Nov. 141:00 PM MST",
    "location": "Salt Lake City, Utah / Regional Athletic Complex",
    "latitude": 40.75628,
    "longitude": -111.89996
  },
  {
    "title": "BYU at Utah",
    "sport": "Women's Volleyball",
    "date": "Fri., Nov. 147:00 PM MST",
    "location": "Salt Lake City, Utah / Huntsman Center",
    "latitude": 40.75628,
    "longitude": -111.89996
  },
  {
    "title": "BYU vs. TCU",
    "sport": "Football",
    "date": "Sat., Nov. 15TBA",
    "location": "Provo, Utah / LaVell Edwards Stadium",
    "latitude": 40.22593,
    "longitude": -111.6955
  },
  {
    "title": "BYU vs. Fresno State",
    "sport": "Women's Basketball",
    "date": "Sat., Nov. 152:00 PM MST",
    "location": "Provo, Utah / Marriott Center",
    "latitude": 40.22593,
    "longitude": -111.6955
  },
  {
    "title": "BYU vs. No. 4 UConn",
    "sport": "Men's Basketball",
    "date": "Sat., Nov. 155:00 PM MST",
    "location": "Boston, Massachusetts / TD Garden",
    "latitude": 42.35657,
    "longitude": -71.06516
  },
  {
    "title": "BYU at NCAA Individual Championships",
    "sport": "Men's Tennis",
    "date": "Tue., Nov. 18TBA",
    "location": "Orlando, Florida",
    "latitude": 28.542,
    "longitude": -81.37343
  },
  {
    "title": "BYU vs. NCAA",
    "sport": "Women's Tennis",
    "date": "Wed., Nov. 19TBA",
    "location": "Orlando, FL",
    "latitude": 28.542,
    "longitude": -81.37343
  },
  {
    "title": "BYU vs. Arizona",
    "sport": "Women's Volleyball",
    "date": "Wed., Nov. 196:00 PM MST",
    "location": "Provo, Utah / Smith Fieldhouse",
    "latitude": 40.22593,
    "longitude": -111.6955
  },
  {
    "title": "BYU at Montana",
    "sport": "Women's Basketball",
    "date": "Wed., Nov. 197:00 PM MST",
    "location": "Missoula, Montana / Dahlberg Arena",
    "latitude": 46.85505,
    "longitude": -114.01009
  },
  {
    "title": "BYU at Wolfpack Elite Invite (Swimming)",
    "sport": "Men's Swimming & Diving",
    "date": "Thu., Nov. 20TBA",
    "location": "Greensboro, North Carolina / Greensboro Aquatic Center",
    "latitude": 36.06995,
    "longitude": -79.76724
  },
  {
    "title": "BYU at USC Invitational (Diving)",
    "sport": "Men's Swimming & Diving",
    "date": "Thu., Nov. 20TBA",
    "location": "Los Angeles, California / Uytengsu Aquatics Center",
    "latitude": 33.97365,
    "longitude": -118.24904
  },
  {
    "title": "BYU at Wolfpack Elite Invite (Swimming)",
    "sport": "Women's Swimming & Diving",
    "date": "Thu., Nov. 20TBA",
    "location": "Greensboro, North Carolina / Greensboro Aquatic Center",
    "latitude": 36.06995,
    "longitude": -79.76724
  },
  {
    "title": "BYU at USC Invitational (Diving)",
    "sport": "Women's Swimming & Diving",
    "date": "Thu., Nov. 20TBA",
    "location": "Los Angeles, California / Uytengsu Aquatics Center",
    "latitude": 33.97365,
    "longitude": -118.24904
  },
  {
    "title": "BYU vs. No. 24 Wisconsin",
    "sport": "Men's Basketball",
    "date": "Fri., Nov. 212:00 PM MST",
    "location": "Salt Lake City, Utah / Delta Center",
    "latitude": 40.75628,
    "longitude": -111.89996
  },
  {
    "title": "BYU vs. No. 14 Kansas",
    "sport": "Women's Volleyball",
    "date": "Fri., Nov. 216:00 PM MST",
    "location": "Provo, Utah / Smith Fieldhouse",
    "latitude": 40.22593,
    "longitude": -111.6955
  },
  {
    "title": "BYU at NCAA Championships",
    "sport": "Men's Cross Country",
    "date": "Sat., Nov. 229:10 AM MST",
    "location": "Columbia, Missouri / Gans Creek Championship Course",
    "latitude": 38.89595,
    "longitude": -92.24365
  },
  {
    "title": "BYU at Cincinnati",
    "sport": "Football",
    "date": "Sat., Nov. 22TBA",
    "location": "Cincinnati, Ohio / Nippert Stadium",
    "latitude": 39.10885,
    "longitude": -84.50243
  },
  {
    "title": "BYU vs. Weber State",
    "sport": "Women's Basketball",
    "date": "Sat., Nov. 222:00 PM MST",
    "location": "Provo, Utah / Marriott Center",
    "latitude": 40.22593,
    "longitude": -111.6955
  },
  {
    "title": "BYU vs. Utah",
    "sport": "Women's Volleyball",
    "date": "Wed., Nov. 266:00 PM MST",
    "location": "Provo, Utah / Smith Fieldhouse",
    "latitude": 40.22593,
    "longitude": -111.6955
  },
  {
    "title": "BYU vs. Miami",
    "sport": "Men's Basketball",
    "date": "Thu., Nov. 273:00 PM MST",
    "location": "Kissimmee, Florida / State Farm Field House",
    "latitude": 28.30544,
    "longitude": -81.42567
  },
  {
    "title": "BYU vs. Virginia Tech",
    "sport": "Women's Basketball",
    "date": "Thu., Nov. 273:30 PM MST",
    "location": "St. Thomas, U.S. Virgin Islands / UVI Arena",
    "latitude": null,
    "longitude": null
  },
  {
    "title": "BYU vs. Dayton/Georgetown",
    "sport": "Men's Basketball",
    "date": "Fri., Nov. 285/7:30 p.m. MST",
    "location": "Kissimmee, Florida / State Farm Field House",
    "latitude": 28.30544,
    "longitude": -81.42567
  },
  {
    "title": "BYU vs. UCF",
    "sport": "Football",
    "date": "Sat., Nov. 29TBA",
    "location": "Provo, Utah / LaVell Edwards Stadium",
    "latitude": 40.22593,
    "longitude": -111.6955
  },
  {
    "title": "BYU at Colorado",
    "sport": "Women's Volleyball",
    "date": "Sat., Nov. 291:00 PM MST",
    "location": "Boulder, Colorado / CU Events Center",
    "latitude": 40.04795,
    "longitude": -105.19876
  },
  {
    "title": "BYU vs. Oregon State/Vanderbilt",
    "sport": "Women's Basketball",
    "date": "Sat., Nov. 29TBA",
    "location": "St. Thomas, U.S. Virgin Islands / UVI Arena",
    "latitude": null,
    "longitude": null
  },
  {
    "title": "BYU vs. US Open",
    "sport": "Men's Swimming & Diving",
    "date": "Wed., Dec. 3TBA",
    "location": "Austin, Texas / Lee and Joe Jamail Texas Swimming Center",
    "latitude": 30.27022,
    "longitude": -97.74248
  },
  {
    "title": "BYU vs. U.S. Open",
    "sport": "Women's Swimming & Diving",
    "date": "Wed., Dec. 3TBA",
    "location": "Austin, Texas / Lee and Joe Jamail Texas Swimming Center",
    "latitude": 30.27022,
    "longitude": -97.74248
  },
  {
    "title": "BYU vs. Washington State",
    "sport": "Women's Basketball",
    "date": "Wed., Dec. 32:00 PM MST",
    "location": "Salt Lake City, Utah / Delta Center",
    "latitude": 40.75628,
    "longitude": -111.89996
  },
  {
    "title": "BYU vs. Cal Baptist",
    "sport": "Men's Basketball",
    "date": "Wed., Dec. 37:00 PM MST",
    "location": "Salt Lake City, Utah / Delta Center",
    "latitude": 40.75628,
    "longitude": -111.89996
  },
  {
    "title": "BYU at Portland",
    "sport": "Women's Basketball",
    "date": "Sat., Dec. 66:00 PM MST",
    "location": "Portland, Oregon / Chiles Center",
    "latitude": 45.50796,
    "longitude": -122.68959
  },
  {
    "title": "BYU vs. Clemson",
    "sport": "Men's Basketball",
    "date": "Tue., Dec. 94:30 PM MST",
    "location": "New York City, New York / Madison Square Garden",
    "latitude": null,
    "longitude": null
  },
  {
    "title": "BYU vs. Idaho State",
    "sport": "Women's Basketball",
    "date": "Thu., Dec. 117:00 PM MST",
    "location": "Provo, Utah / Marriott Center",
    "latitude": 40.22593,
    "longitude": -111.6955
  },
  {
    "title": "BYU vs. CSCAA Open Water Championship",
    "sport": "Men's Swimming & Diving",
    "date": "Sat., Dec. 13TBA",
    "location": "Sarasota, Florida / Nathan Benderson Park",
    "latitude": 27.26651,
    "longitude": -82.51626
  },
  {
    "title": "BYU vs. CSCAA Open Water Championship",
    "sport": "Women's Swimming & Diving",
    "date": "Sat., Dec. 13TBA",
    "location": "Sarasota, Florida / Nathan Benderson Park",
    "latitude": 27.26651,
    "longitude": -82.51626
  },
  {
    "title": "BYU vs. UTEP",
    "sport": "Women's Basketball",
    "date": "Sat., Dec. 131:00 PM MST",
    "location": "Provo, Utah / Marriott Center",
    "latitude": 40.22593,
    "longitude": -111.6955
  },
  {
    "title": "BYU vs. UC Riverside",
    "sport": "Men's Basketball",
    "date": "Sat., Dec. 137:00 PM MST",
    "location": "Provo, Utah / Marriott Center",
    "latitude": 40.22593,
    "longitude": -111.6955
  },
  {
    "title": "BYU vs. Pacific",
    "sport": "Men's Basketball",
    "date": "Tue., Dec. 167:00 PM MST",
    "location": "Provo, Utah / Marriott Center",
    "latitude": 40.22593,
    "longitude": -111.6955
  },
  {
    "title": "BYU vs. Abilene Christian",
    "sport": "Men's Basketball",
    "date": "Fri., Dec. 197:30 PM MST",
    "location": "Provo, Utah / Marriott Center",
    "latitude": 40.22593,
    "longitude": -111.6955
  },
  {
    "title": "BYU at UCF",
    "sport": "Women's Basketball",
    "date": "Sat., Dec. 2012:00 PM MST",
    "location": "Orlando, Florida / Addition Financial Arena",
    "latitude": 28.542,
    "longitude": -81.37343
  },
  {
    "title": "BYU vs. Eastern Washington",
    "sport": "Men's Basketball",
    "date": "Mon., Dec. 227:00 PM MST",
    "location": "Provo, Utah / Marriott Center",
    "latitude": 40.22593,
    "longitude": -111.6955
  },
  {
    "title": "BYU vs. TCU",
    "sport": "Women's Basketball",
    "date": "Wed., Dec. 317:00 PM MST",
    "location": "Provo, Utah / Marriott Center",
    "latitude": 40.22593,
    "longitude": -111.6955
  },
  {
    "title": "BYU at Hawaii",
    "sport": "Men's Swimming & Diving",
    "date": "Sat., Jan. 3TBA",
    "location": "Honolulu, Hawaii / Duke Kahanamoku Aquatic Complex",
    "latitude": 21.31628,
    "longitude": -157.84359
  },
  {
    "title": "BYU at Kansas State",
    "sport": "Men's Basketball",
    "date": "Sat., Jan. 311:30 AM MST",
    "location": "Manhattan, Kansas / Bramlage Coliseum",
    "latitude": 39.14146,
    "longitude": -96.52906
  },
  {
    "title": "BYU at Hawaii",
    "sport": "Women's Swimming & Diving",
    "date": "Sat., Jan. 3TBA",
    "location": "Honolulu, Hawaii / Duke Kahanamoku Aquatic Complex",
    "latitude": 21.31628,
    "longitude": -157.84359
  },
  {
    "title": "BYU vs. Arizona State",
    "sport": "Women's Basketball",
    "date": "Sat., Jan. 32:00 PM MST",
    "location": "Provo, Utah / Marriott Center",
    "latitude": 40.22593,
    "longitude": -111.6955
  },
  {
    "title": "BYU at Arizona",
    "sport": "Women's Basketball",
    "date": "Tue., Jan. 66:00 PM MST",
    "location": "Tucson, Arizona / McKale Center",
    "latitude": 32.21702,
    "longitude": -110.97138
  },
  {
    "title": "BYU vs. Arizona State",
    "sport": "Men's Basketball",
    "date": "Wed., Jan. 77:00 PM MST",
    "location": "Provo, Utah / Marriott Center",
    "latitude": 40.22593,
    "longitude": -111.6955
  },
  {
    "title": "BYU vs. Oregon State",
    "sport": "Women's Gymnastics",
    "date": "Fri., Jan. 97:00 PM MST",
    "location": "Provo, Utah / Marriott Center",
    "latitude": 40.22593,
    "longitude": -111.6955
  },
  {
    "title": "BYU at Dual at Denver",
    "sport": "Men's Swimming & Diving",
    "date": "Sat., Jan. 10TBA",
    "location": "Denver, Colorado / El Pomar Natatorium",
    "latitude": 39.75156,
    "longitude": -104.99768
  },
  {
    "title": "BYU at Dual at Denver",
    "sport": "Women's Swimming & Diving",
    "date": "Sat., Jan. 10TBA",
    "location": "Denver, Colorado / El Pomar Natatorium",
    "latitude": 39.75156,
    "longitude": -104.99768
  },
  {
    "title": "BYU at Houston",
    "sport": "Women's Basketball",
    "date": "Sat., Jan. 101:00 PM MST",
    "location": "Houston, Texas / Fertitta Center",
    "latitude": 29.75635,
    "longitude": -95.36538
  },
  {
    "title": "BYU at Utah",
    "sport": "Men's Basketball",
    "date": "Sat., Jan. 108:00 PM MST",
    "location": "Salt Lake City, Utah / Huntsman Center",
    "latitude": 40.75628,
    "longitude": -111.89996
  },
  {
    "title": "BYU vs. Utah State",
    "sport": "Women's Gymnastics",
    "date": "Mon., Jan. 127:00 PM MST",
    "location": "West Valley City, Utah / Maverik Center",
    "latitude": 40.70289,
    "longitude": -111.94591
  },
  {
    "title": "BYU vs. Utah",
    "sport": "Women's Gymnastics",
    "date": "Mon., Jan. 127:00 PM MST",
    "location": "West Valley City, Utah / Maverik Center",
    "latitude": 40.70289,
    "longitude": -111.94591
  },
  {
    "title": "BYU vs. Southern Utah",
    "sport": "Women's Gymnastics",
    "date": "Mon., Jan. 127:00 PM MST",
    "location": "West Valley City, Utah / Maverik Center",
    "latitude": 40.70289,
    "longitude": -111.94591
  },
  {
    "title": "BYU vs. TCU",
    "sport": "Men's Basketball",
    "date": "Wed., Jan. 149:00 PM MST",
    "location": "Provo, Utah / Marriott Center",
    "latitude": 40.22593,
    "longitude": -111.6955
  },
  {
    "title": "BYU vs. Big 12 - Duel in the West",
    "sport": "Men's Swimming & Diving",
    "date": "Fri., Jan. 16TBA",
    "location": "Tempe, Arizona",
    "latitude": 33.42805,
    "longitude": -111.93157
  },
  {
    "title": "BYU at Big 12 - Duel in the West",
    "sport": "Women's Swimming & Diving",
    "date": "Fri., Jan. 16TBA",
    "location": "Tempe, Arizona",
    "latitude": 33.42805,
    "longitude": -111.93157
  },
  {
    "title": "BYU vs. Boise State",
    "sport": "Women's Gymnastics",
    "date": "Fri., Jan. 167:00 PM MST",
    "location": "Provo, Utah / Marriott Center",
    "latitude": 40.22593,
    "longitude": -111.6955
  },
  {
    "title": "BYU at Utah Tech",
    "sport": "Women's Tennis",
    "date": "Sat., Jan. 1710:00 AM MST",
    "location": "St. George, UT",
    "latitude": null,
    "longitude": null
  },
  {
    "title": "BYU vs. Weber State",
    "sport": "Men's Tennis",
    "date": "Sat., Jan. 1712:00 PM MST",
    "location": "Provo, Utah / Indoor Tennis Courts",
    "latitude": 40.22593,
    "longitude": -111.6955
  },
  {
    "title": "BYU vs. Baylor",
    "sport": "Women's Basketball",
    "date": "Sat., Jan. 172:00 PM MST",
    "location": "Provo, Utah / Marriott Center",
    "latitude": 40.22593,
    "longitude": -111.6955
  },
  {
    "title": "BYU at Utah Tech",
    "sport": "Women's Tennis",
    "date": "Sat., Jan. 173:00 PM MST",
    "location": "St. George, UT",
    "latitude": null,
    "longitude": null
  },
  {
    "title": "BYU at No. 10 Texas Tech",
    "sport": "Men's Basketball",
    "date": "Sat., Jan. 176:00 PM MST",
    "location": "Lubbock, Texas / United Supermarkets Arena",
    "latitude": 33.58683,
    "longitude": -101.85179
  },
  {
    "title": "BYU vs. Texas Tech",
    "sport": "Women's Basketball",
    "date": "Wed., Jan. 217:00 PM MST",
    "location": "Provo, Utah / Marriott Center",
    "latitude": 40.22593,
    "longitude": -111.6955
  },
  {
    "title": "BYU vs. Air Force and CMU Double Dual",
    "sport": "Men's Swimming & Diving",
    "date": "Fri., Jan. 23TBA",
    "location": "Provo, Utah / Richards Building Pool",
    "latitude": 40.22593,
    "longitude": -111.6955
  },
  {
    "title": "BYU at San Diego",
    "sport": "Women's Tennis",
    "date": "Fri., Jan. 23TBA",
    "location": "San Diego, CA",
    "latitude": 32.7162,
    "longitude": -117.18589
  },
  {
    "title": "BYU at Arizona State",
    "sport": "Women's Gymnastics",
    "date": "Fri., Jan. 23TBA",
    "location": "Tempe, Arizona / Mullett Arena",
    "latitude": 33.42805,
    "longitude": -111.93157
  },
  {
    "title": "BYU vs. Air Force and CMU Double Dual",
    "sport": "Women's Swimming & Diving",
    "date": "Fri., Jan. 23TBA",
    "location": "Provo, Utah / Richards Building Pool",
    "latitude": 40.22593,
    "longitude": -111.6955
  },
  {
    "title": "BYU vs. Utah",
    "sport": "Men's Basketball",
    "date": "Sat., Jan. 243:30 PM MST",
    "location": "Provo, Utah / Marriott Center",
    "latitude": 40.22593,
    "longitude": -111.6955
  },
  {
    "title": "BYU vs. West Virginia",
    "sport": "Women's Basketball",
    "date": "Sat., Jan. 247:30 PM MST",
    "location": "Provo, Utah / Marriott Center",
    "latitude": 40.22593,
    "longitude": -111.6955
  },
  {
    "title": "BYU at Arizona N.I.T",
    "sport": "Men's Golf",
    "date": "Mon., Jan. 268:00 AM MST",
    "location": "Tucson, AZ / Omni Tucson National Resort",
    "latitude": 32.21702,
    "longitude": -110.97138
  },
  {
    "title": "BYU vs. No. 13 Arizona",
    "sport": "Men's Basketball",
    "date": "Mon., Jan. 267:00 PM MST",
    "location": "Provo, Utah / Marriott Center",
    "latitude": 40.22593,
    "longitude": -111.6955
  },
  {
    "title": "BYU at Air Force Invite (Diving)",
    "sport": "Men's Swimming & Diving",
    "date": "Wed., Jan. 28TBA",
    "location": "Colorado Springs, Colorado / Cadet Natatorium",
    "latitude": 38.68683,
    "longitude": -104.8127
  }
]